[
  {
    "name": "บางบอน",
    "lat": 13.6592,
    "lng": 100.3991
  },
  {
    "name": "บางกะปิ",
    "lat": 13.765833,
    "lng": 100.647778
  },
  {
    "name": "บางแค",
    "lat": 13.696111,
    "lng": 100.409444
  },
  {
    "name": "บางเขน",
    "lat": 13.873889,
    "lng": 100.596389
  },
  {
    "name": "บางคอแหลม",
    "lat": 13.693333,
    "lng": 100.5025
  },
  {
    "name": "บางขุนเทียน",
    "lat": 13.660833,
    "lng": 100.435833
  },
  {
    "name": "บางนา",
    "lat": 13.680081,
    "lng": 100.5918
  },
  {
    "name": "บางพลัด",
    "lat": 13.793889,
    "lng": 100.505
  },
  {
    "name": "บางรัก",
    "lat": 13.730833,
    "lng": 100.524167
  },
  {
    "name": "บางซื่อ",
    "lat": 13.809722,
    "lng": 100.537222
  },
  {
    "name": "บางกอกน้อย",
    "lat": 13.770867,
    "lng": 100.467933
  },
  {
    "name": "บางกอกใหญ่",
    "lat": 13.722778,
    "lng": 100.476389
  },
  {
    "name": "บึงกุ่ม",
    "lat": 13.785278,
    "lng": 100.669167
  },
  {
    "name": "จตุจักร",
    "lat": 13.828611,
    "lng": 100.559722
  },
  {
    "name": "จอมทอง",
    "lat": 13.677222,
    "lng": 100.484722
  },
  {
    "name": "ดินแดง",
    "lat": 13.769722,
    "lng": 100.552778
  },
  {
    "name": "ดอนเมือง",
    "lat": 13.913611,
    "lng": 100.589722
  },
  {
    "name": "ดุสิต",
    "lat": 13.776944,
    "lng": 100.520556
  },
  {
    "name": "ห้วยขวาง",
    "lat": 13.776667,
    "lng": 100.579444
  },
  {
    "name": "คันนายาว",
    "lat": 13.8271,
    "lng": 100.6743
  },
  {
    "name": "คลองสามวา",
    "lat": 13.859722,
    "lng": 100.704167
  },
  {
    "name": "คลองสาน",
    "lat": 13.730278,
    "lng": 100.509722
  },
  {
    "name": "คลองเตย",
    "lat": 13.708056,
    "lng": 100.583889
  },
  {
    "name": "หลักสี่",
    "lat": 13.8875,
    "lng": 100.578889
  },
  {
    "name": "ลาดกระบัง",
    "lat": 13.722317,
    "lng": 100.759669
  },
  {
    "name": "ลาดพร้าว",
    "lat": 13.803611,
    "lng": 100.6075
  },
  {
    "name": "มีนบุรี",
    "lat": 13.813889,
    "lng": 100.748056
  },
  {
    "name": "หนองจอก",
    "lat": 13.855556,
    "lng": 100.8625
  },
  {
    "name": "หนองแขม",
    "lat": 13.704722,
    "lng": 100.348889
  },
  {
    "name": "ปทุมวัน",
    "lat": 13.744942,
    "lng": 100.5222
  },
  {
    "name": "ภาษีเจริญ",
    "lat": 13.714722,
    "lng": 100.437222
  },
  {
    "name": "พญาไท",
    "lat": 13.78,
    "lng": 100.542778
  },
  {
    "name": "พระโขนง",
    "lat": 13.702222,
    "lng": 100.601667
  },
  {
    "name": "พระนคร",
    "lat": 13.764444,
    "lng": 100.499167
  },
  {
    "name": "ป้อมปราบศัตรูพ่าย",
    "lat": 13.758056,
    "lng": 100.513056
  },
  {
    "name": "ประเวศ",
    "lat": 13.716944,
    "lng": 100.694444
  },
  {
    "name": "ราษฎร์บูรณะ",
    "lat": 13.682222,
    "lng": 100.505556
  },
  {
    "name": "ราชเทวี",
    "lat": 13.758889,
    "lng": 100.534444
  },
  {
    "name": "สายไหม",
    "lat": 13.919167,
    "lng": 100.645833
  },
  {
    "name": "สัมพันธวงศ์",
    "lat": 13.731389,
    "lng": 100.514167
  },
  {
    "name": "สะพานสูง",
    "lat": 13.77,
    "lng": 100.684722
  },
  {
    "name": "สาทร",
    "lat": 13.708056,
    "lng": 100.526389
  },
  {
    "name": "สวนหลวง",
    "lat": 13.730278,
    "lng": 100.651389
  },
  {
    "name": "ตลิ่งชัน",
    "lat": 13.776944,
    "lng": 100.456667
  },
  {
    "name": "ทวีวัฒนา",
    "lat": 13.7878,
    "lng": 100.3638
  },
  {
    "name": "ธนบุรี",
    "lat": 13.725,
    "lng": 100.485833
  },
  {
    "name": "ทุ่งครุ",
    "lat": 13.6472,
    "lng": 100.4958
  },
  {
    "name": "วังทองหลาง",
    "lat": 13.7864,
    "lng": 100.6087
  },
  {
    "name": "วัฒนา",
    "lat": 13.742222,
    "lng": 100.585833
  },
  {
    "name": "ยานนาวา",
    "lat": 13.696944,
    "lng": 100.543056
  }
]